{
  "nearestToilet": [
    {
      "rating": 3,
      "img": [],
      "_id": "6502fea138490f96fdbad3b2",
      "name": "東平洲公廁",
      "address": "東平洲",
      "open_hours": "24 小時",
      "coordinates": "22.544192,114.432503",
      "comments": [],
      "facility": [],
      "image": [],
      "distance": 4396315.292945694
    },
    {
      "rating": 3,
      "img": [],
      "_id": "6502fea138490f96fdbad4db",
      "name": "吉澳漁民村公廁",
      "address": "沙頭角吉澳漁民村",
      "open_hours": "24 小時",
      "coordinates": "22.553222,114.288556",
      "comments": [],
      "facility": [],
      "image": [],
      "distance": 4401140.702128204
    },
    {
      "rating": 3,
      "img": [],
      "_id": "6502fea138490f96fdbad374",
      "name": "吉澳(碼頭)公廁",
      "address": "沙頭角吉澳",
      "open_hours": "24 小時",
      "coordinates": "22.550406,114.29035",
      "comments": [],
      "facility": [],
      "image": [],
      "distance": 4401357.258111241
    },
    {
      "rating": 3,
      "img": [],
      "_id": "6502fea138490f96fdbad448",
      "name": "吉澳西澳公廁",
      "address": "沙頭角吉澳西澳",
      "open_hours": "24 小時",
      "coordinates": "22.546992,114.291019",
      "comments": [],
      "facility": [],
      "image": [],
      "distance": 4401680.086385036
    },
    {
      "rating": 3,
      "img": [],
      "_id": "6502fea138490f96fdbad3de",
      "name": "鴨洲公廁 (I)",
      "address": "沙頭角鴨洲碼頭",
      "open_hours": "24 小時",
      "coordinates": "22.550481,114.270167",
      "comments": [],
      "facility": [],
      "image": [],
      "distance": 4402157.596518725
    },
    {
      "rating": 3,
      "img": [],
      "_id": "6502fea138490f96fdbad469",
      "name": "山咀公廁",
      "address": "沙頭角山咀村休憩處側",
      "open_hours": "24 小時",
      "coordinates": "22.548144,114.222053",
      "comments": [],
      "facility": [],
      "image": [],
      "distance": 4404324.806747818
    },
    {
      "rating": 3,
      "img": [],
      "_id": "6502fea138490f96fdbad316",
      "name": "車坪街公廁及公共浴室",
      "address": "沙頭角車坪街沙頭角街市前",
      "open_hours": "24 小時",
      "coordinates": "22.545289,114.224811",
      "comments": [],
      "facility": [],
      "image": [],
      "distance": 4404506.498180188
    },
    {
      "rating": 3,
      "img": [],
      "_id": "6502fea138490f96fdbad3e1",
      "name": "担水坑村公廁",
      "address": "沙頭角担水坑村口",
      "open_hours": "24 小時",
      "coordinates": "22.54536,114.21947",
      "comments": [],
      "facility": [],
      "image": [],
      "distance": 4404713.371462505
    },
    {
      "rating": 3,
      "img": [],
      "_id": "6502fea138490f96fdbad431",
      "name": "木棉頭公廁",
      "address": "沙頭角木棉頭",
      "open_hours": "24 小時",
      "coordinates": "22.543756,114.217481",
      "comments": [],
      "facility": [],
      "image": [],
      "distance": 4404957.325327593
    },
    {
      "rating": 3,
      "img": [],
      "_id": "6502fea138490f96fdbad375",
      "name": "荔枝窩公廁",
      "address": "沙頭角荔枝窩",
      "open_hours": "24 小時",
      "coordinates": "22.526989,114.260042",
      "comments": [],
      "facility": [],
      "image": [],
      "distance": 4404968.490870563
    }
  ]
}